%time,field.header.seq,field.header.stamp,field.header.frame_id,field.orientation.x,field.orientation.y,field.orientation.z,field.orientation.w,field.orientation_covariance0,field.orientation_covariance1,field.orientation_covariance2,field.orientation_covariance3,field.orientation_covariance4,field.orientation_covariance5,field.orientation_covariance6,field.orientation_covariance7,field.orientation_covariance8,field.angular_velocity.x,field.angular_velocity.y,field.angular_velocity.z,field.angular_velocity_covariance0,field.angular_velocity_covariance1,field.angular_velocity_covariance2,field.angular_velocity_covariance3,field.angular_velocity_covariance4,field.angular_velocity_covariance5,field.angular_velocity_covariance6,field.angular_velocity_covariance7,field.angular_velocity_covariance8,field.linear_acceleration.x,field.linear_acceleration.y,field.linear_acceleration.z,field.linear_acceleration_covariance0,field.linear_acceleration_covariance1,field.linear_acceleration_covariance2,field.linear_acceleration_covariance3,field.linear_acceleration_covariance4,field.linear_acceleration_covariance5,field.linear_acceleration_covariance6,field.linear_acceleration_covariance7,field.linear_acceleration_covariance8
117735250000,11048,117735250000,RH_EXTIMU,2.2932715788e-06,1.53196171221e-05,-0.703285780478,0.71090724482,0.0,0.0,0.0,0.0,0.0,0.0,0.0,0.0,0.0,1.19800998937e-07,-8.13380203893e-09,-7.22038459104e-05,0.0,0.0,0.0,0.0,0.0,0.0,0.0,0.0,0.0,-0.000245457587107,-0.000181612558247,9.8100077031,0.0,0.0,0.0,0.0,0.0,0.0,0.0,0.0,0.0
117737750000,11049,117737750000,RH_EXTIMU,2.29313402886e-06,1.53196621872e-05,-0.70328584464,0.710907181346,0.0,0.0,0.0,0.0,0.0,0.0,0.0,0.0,0.0,-1.0268029415e-07,-5.10996651005e-08,-7.22029453453e-05,0.0,0.0,0.0,0.0,0.0,0.0,0.0,0.0,0.0,-0.000246233372419,-0.00017714749759,9.81001157075,0.0,0.0,0.0,0.0,0.0,0.0,0.0,0.0,0.0
117737750000,11050,117740250000,RH_EXTIMU,2.29307998339e-06,1.53197209386e-05,-0.703285908801,0.710907117872,0.0,0.0,0.0,0.0,0.0,0.0,0.0,0.0,0.0,-6.28894961166e-08,3.66612768662e-09,-7.22022488535e-05,0.0,0.0,0.0,0.0,0.0,0.0,0.0,0.0,0.0,-0.000244992819707,-0.000178649476366,9.80999936342,0.0,0.0,0.0,0.0,0.0,0.0,0.0,0.0,0.0
117742750000,11051,117742750000,RH_EXTIMU,2.29322015822e-06,1.531966497e-05,-0.703285972962,0.710907054399,0.0,0.0,0.0,0.0,0.0,0.0,0.0,0.0,0.0,1.12113343221e-07,4.76958204019e-08,-7.22016100777e-05,0.0,0.0,0.0,0.0,0.0,0.0,0.0,0.0,0.0,-0.000244525990158,-0.000181660653484,9.80999679571,0.0,0.0,0.0,0.0,0.0,0.0,0.0,0.0,0.0
117745250000,11052,117745250000,RH_EXTIMU,2.293183196e-06,1.53196615055e-05,-0.703286037122,0.710906990927,0.0,0.0,0.0,0.0,0.0,0.0,0.0,0.0,0.0,-1.81693540833e-08,-2.21061727875e-08,-7.22009336014e-05,0.0,0.0,0.0,0.0,0.0,0.0,0.0,0.0,0.0,-0.000246087327017,-0.000178542674556,9.80998704598,0.0,0.0,0.0,0.0,0.0,0.0,0.0,0.0,0.0
117747750000,11053,117747750000,RH_EXTIMU,2.29329139507e-06,1.53195613238e-05,-0.703286101282,0.710906927455,0.0,0.0,0.0,0.0,0.0,0.0,0.0,0.0,0.0,1.18803441961e-07,4.56022684731e-09,-7.22002706405e-05,0.0,0.0,0.0,0.0,0.0,0.0,0.0,0.0,0.0,-0.000244808220716,-0.000181947765531,9.81000178509,0.0,0.0,0.0,0.0,0.0,0.0,0.0,0.0,0.0
117750250000,11054,117750250000,RH_EXTIMU,2.29320463572e-06,1.53195684906e-05,-0.703286165441,0.710906863984,0.0,0.0,0.0,0.0,0.0,0.0,0.0,0.0,0.0,-5.24717115333e-08,-4.40772440141e-08,-7.21995169286e-05,0.0,0.0,0.0,0.0,0.0,0.0,0.0,0.0,0.0,-0.000246213828915,-0.000178047842864,9.80999242585,0.0,0.0,0.0,0.0,0.0,0.0,0.0,0.0,0.0
117750250000,11055,117752750000,RH_EXTIMU,2.2932913045e-06,1.53195007692e-05,-0.703286229599,0.710906800514,0.0,0.0,0.0,0.0,0.0,0.0,0.0,0.0,0.0,8.82954801468e-08,1.09076674284e-08,-7.21985776802e-05,0.0,0.0,0.0,0.0,0.0,0.0,0.0,0.0,0.0,-0.00024522225298,-0.000180891416039,9.81003509629,0.0,0.0,0.0,0.0,0.0,0.0,0.0,0.0,0.0
117755250000,11056,117755250000,RH_EXTIMU,2.29309344794e-06,1.53196727566e-05,-0.703286293756,0.710906737044,0.0,0.0,0.0,0.0,0.0,0.0,0.0,0.0,0.0,-2.08388404483e-07,-1.28460937909e-08,-7.21977440579e-05,0.0,0.0,0.0,0.0,0.0,0.0,0.0,0.0,0.0,-0.000245213461921,-0.000175906863484,9.81000608935,0.0,0.0,0.0,0.0,0.0,0.0,0.0,0.0,0.0
117757750000,11057,117757750000,RH_EXTIMU,2.29316299034e-06,1.53196814379e-05,-0.703286357913,0.710906673575,0.0,0.0,0.0,0.0,0.0,0.0,0.0,0.0,0.0,3.55688884737e-08,4.47240318075e-08,-7.21971848869e-05,0.0,0.0,0.0,0.0,0.0,0.0,0.0,0.0,0.0,-0.000244776732528,-0.000180521462445,9.80998867347,0.0,0.0,0.0,0.0,0.0,0.0,0.0,0.0,0.0
117762750000,11058,117760250000,RH_EXTIMU,2.29329336854e-06,1.53195824688e-05,-0.703286422069,0.710906610106,0.0,0.0,0.0,0.0,0.0,0.0,0.0,0.0,0.0,1.30734970339e-07,1.77285196194e-08,-7.21965870892e-05,0.0,0.0,0.0,0.0,0.0,0.0,0.0,0.0,0.0,-0.000244880811467,-0.00018178797353,9.80998622901,0.0,0.0,0.0,0.0,0.0,0.0,0.0,0.0,0.0
117762750000,11059,117762750000,RH_EXTIMU,2.29346102476e-06,1.53194455635e-05,-0.703286486225,0.710906546638,0.0,0.0,0.0,0.0,0.0,0.0,0.0,0.0,0.0,1.73279948265e-07,1.71269066204e-08,-7.21959389915e-05,0.0,0.0,0.0,0.0,0.0,0.0,0.0,0.0,0.0,-0.000245332844923,-0.000182313647277,9.80999880236,0.0,0.0,0.0,0.0,0.0,0.0,0.0,0.0,0.0
117765250000,11060,117765250000,RH_EXTIMU,2.29328861395e-06,1.53194931639e-05,-0.70328655038,0.710906483171,0.0,0.0,0.0,0.0,0.0,0.0,0.0,0.0,0.0,-1.23933033463e-07,-6.92717073101e-08,-7.21950602553e-05,0.0,0.0,0.0,0.0,0.0,0.0,0.0,0.0,0.0,-0.000246438505825,-0.000176454593377,9.81000353275,0.0,0.0,0.0,0.0,0.0,0.0,0.0,0.0,0.0
117767750000,11061,117767750000,RH_EXTIMU,2.2932347149e-06,1.53195711494e-05,-0.703286614534,0.710906419704,0.0,0.0,0.0,0.0,0.0,0.0,0.0,0.0,0.0,-7.36279925846e-08,1.46872759233e-08,-7.21944124447e-05,0.0,0.0,0.0,0.0,0.0,0.0,0.0,0.0,0.0,-0.000244868756476,-0.000178376840913,9.80999213137,0.0,0.0,0.0,0.0,0.0,0.0,0.0,0.0,0.0
117770250000,11062,117770250000,RH_EXTIMU,2.29324288354e-06,1.53194222205e-05,-0.703286678688,0.710906356238,0.0,0.0,0.0,0.0,0.0,0.0,0.0,0.0,0.0,8.93401640611e-08,-7.94435817158e-08,-7.21937101628e-05,0.0,0.0,0.0,0.0,0.0,0.0,0.0,0.0,0.0,-0.000246818966152,-0.000181203011244,9.80999464601,0.0,0.0,0.0,0.0,0.0,0.0,0.0,0.0,0.0
117772750000,11063,117772750000,RH_EXTIMU,2.29334011956e-06,1.53193373544e-05,-0.703286742841,0.710906292773,0.0,0.0,0.0,0.0,0.0,0.0,0.0,0.0,0.0,1.03951387808e-07,7.10245973005e-09,-7.21930125849e-05,0.0,0.0,0.0,0.0,0.0,0.0,0.0,0.0,0.0,-0.000244546602605,-0.000181295434791,9.81000279832,0.0,0.0,0.0,0.0,0.0,0.0,0.0,0.0,0.0
117775250000,11064,117775250000,RH_EXTIMU,2.29339758781e-06,1.53193252454e-05,-0.703286806993,0.710906229308,0.0,0.0,0.0,0.0,0.0,0.0,0.0,0.0,0.0,4.03991495598e-08,2.61067521579e-08,-7.21921821507e-05,0.0,0.0,0.0,0.0,0.0,0.0,0.0,0.0,0.0,-0.00024530078765,-0.000179816386255,9.81001520402,0.0,0.0,0.0,0.0,0.0,0.0,0.0,0.0,0.0
117777750000,11065,117777750000,RH_EXTIMU,2.29321328605e-06,1.53194107569e-05,-0.703286871145,0.710906165844,0.0,0.0,0.0,0.0,0.0,0.0,0.0,0.0,0.0,-1.52025648402e-07,-5.44010003828e-08,-7.21914868296e-05,0.0,0.0,0.0,0.0,0.0,0.0,0.0,0.0,0.0,-0.000246114543589,-0.000176779202578,9.80998767173,0.0,0.0,0.0,0.0,0.0,0.0,0.0,0.0,0.0
117780250000,11066,117780250000,RH_EXTIMU,2.29346682906e-06,1.53193439089e-05,-0.703286935296,0.71090610238,0.0,0.0,0.0,0.0,0.0,0.0,0.0,0.0,0.0,1.82709551224e-07,1.05292710498e-07,-7.21908096192e-05,0.0,0.0,0.0,0.0,0.0,0.0,0.0,0.0,0.0,-0.000243455110003,-0.000182903971445,9.81001128283,0.0,0.0,0.0,0.0,0.0,0.0,0.0,0.0,0.0
117782750000,11067,117782750000,RH_EXTIMU,2.29346689621e-06,1.53194037111e-05,-0.703286999447,0.710906038917,0.0,0.0,0.0,0.0,0.0,0.0,0.0,0.0,0.0,-3.2705656399e-08,3.47088488136e-08,-7.21901204274e-05,0.0,0.0,0.0,0.0,0.0,0.0,0.0,0.0,0.0,-0.000244904453409,-0.000178694839104,9.80999319876,0.0,0.0,0.0,0.0,0.0,0.0,0.0,0.0,0.0
117785250000,11068,117785250000,RH_EXTIMU,2.29354782256e-06,1.53193775937e-05,-0.703287063597,0.710905975455,0.0,0.0,0.0,0.0,0.0,0.0,0.0,0.0,0.0,6.16218465478e-08,3.1338040657e-08,-7.21894458253e-05,0.0,0.0,0.0,0.0,0.0,0.0,0.0,0.0,0.0,-0.000244950317669,-0.000180523918674,9.80999732479,0.0,0.0,0.0,0.0,0.0,0.0,0.0,0.0,0.0
117787750000,11069,117787750000,RH_EXTIMU,2.29347003814e-06,1.53193682817e-05,-0.703287127746,0.710905911993,0.0,0.0,0.0,0.0,0.0,0.0,0.0,0.0,0.0,-3.80961105574e-08,-4.83997246667e-08,-7.21887250549e-05,0.0,0.0,0.0,0.0,0.0,0.0,0.0,0.0,0.0,-0.000246498335555,-0.000178285597786,9.80999058003,0.0,0.0,0.0,0.0,0.0,0.0,0.0,0.0,0.0
117790250000,11070,117790250000,RH_EXTIMU,2.29348046574e-06,1.53192806352e-05,-0.703287191895,0.710905848532,0.0,0.0,0.0,0.0,0.0,0.0,0.0,0.0,0.0,5.6145567215e-08,-4.3319799211e-08,-7.21880606691e-05,0.0,0.0,0.0,0.0,0.0,0.0,0.0,0.0,0.0,-0.000245644492047,-0.000180658336284,9.80999408856,0.0,0.0,0.0,0.0,0.0,0.0,0.0,0.0,0.0
117792750000,11071,117792750000,RH_EXTIMU,2.29357044321e-06,1.53191846988e-05,-0.703287256043,0.710905785072,0.0,0.0,0.0,0.0,0.0,0.0,0.0,0.0,0.0,1.06051697715e-07,-3.27738287266e-09,-7.21873195951e-05,0.0,0.0,0.0,0.0,0.0,0.0,0.0,0.0,0.0,-0.000245212177494,-0.000181344617064,9.81000696248,0.0,0.0,0.0,0.0,0.0,0.0,0.0,0.0,0.0
117795250000,11072,117795250000,RH_EXTIMU,2.29356910901e-06,1.53191888447e-05,-0.70328732019,0.710905721612,0.0,0.0,0.0,0.0,0.0,0.0,0.0,0.0,0.0,-2.18879634395e-09,2.2672175202e-09,-7.21864858755e-05,0.0,0.0,0.0,0.0,0.0,0.0,0.0,0.0,0.0,-0.000245192142085,-0.000179227576991,9.8100126012,0.0,0.0,0.0,0.0,0.0,0.0,0.0,0.0,0.0
117797750000,11073,117797750000,RH_EXTIMU,2.293528312e-06,1.53192850058e-05,-0.703287384336,0.710905658153,0.0,0.0,0.0,0.0,0.0,0.0,0.0,0.0,0.0,-7.64028065804e-08,3.2395600678e-08,-7.21857442193e-05,0.0,0.0,0.0,0.0,0.0,0.0,0.0,0.0,0.0,-0.000244845794011,-0.00017800513415,9.81000374321,0.0,0.0,0.0,0.0,0.0,0.0,0.0,0.0,0.0
117800250000,11074,117800250000,RH_EXTIMU,2.2934606798e-06,1.531933274e-05,-0.703287448482,0.710905594694,0.0,0.0,0.0,0.0,0.0,0.0,0.0,0.0,0.0,-6.44181789099e-08,-1.02443096786e-08,-7.21850481782e-05,0.0,0.0,0.0,0.0,0.0,0.0,0.0,0.0,0.0,-0.000245794011011,-0.000178191663677,9.80999156635,0.0,0.0,0.0,0.0,0.0,0.0,0.0,0.0,0.0
117802750000,11075,117802750000,RH_EXTIMU,2.29352055818e-06,1.531923889e-05,-0.703287512628,0.710905531236,0.0,0.0,0.0,0.0,0.0,0.0,0.0,0.0,0.0,8.77596523245e-08,-1.90253739978e-08,-7.21843798182e-05,0.0,0.0,0.0,0.0,0.0,0.0,0.0,0.0,0.0,-0.000245466932176,-0.000181250623895,9.8099973546,0.0,0.0,0.0,0.0,0.0,0.0,0.0,0.0,0.0
117805250000,11076,117805250000,RH_EXTIMU,2.29352719295e-06,1.53191733903e-05,-0.703287576772,0.710905467779,0.0,0.0,0.0,0.0,0.0,0.0,0.0,0.0,0.0,4.15280027586e-08,-3.28583567766e-08,-7.21836499285e-05,0.0,0.0,0.0,0.0,0.0,0.0,0.0,0.0,0.0,-0.000245872566982,-0.000179979310376,9.80999779452,0.0,0.0,0.0,0.0,0.0,0.0,0.0,0.0,0.0
117807750000,11077,117807750000,RH_EXTIMU,2.29361719919e-06,1.53191164788e-05,-0.703287640916,0.710905404322,0.0,0.0,0.0,0.0,0.0,0.0,0.0,0.0,0.0,8.41113856269e-08,1.89332654046e-08,-7.218295102e-05,0.0,0.0,0.0,0.0,0.0,0.0,0.0,0.0,0.0,-0.000244600681146,-0.000181032282798,9.81000410965,0.0,0.0,0.0,0.0,0.0,0.0,0.0,0.0,0.0
117810250000,11078,117810250000,RH_EXTIMU,2.29370588681e-06,1.53191312664e-05,-0.70328770506,0.710905340866,0.0,0.0,0.0,0.0,0.0,0.0,0.0,0.0,0.0,4.30214152016e-08,5.89683425628e-08,-7.2182156293e-05,0.0,0.0,0.0,0.0,0.0,0.0,0.0,0.0,0.0,-0.000244495852793,-0.000180157932095,9.81001515412,0.0,0.0,0.0,0.0,0.0,0.0,0.0,0.0,0.0
117812750000,11079,117812750000,RH_EXTIMU,2.293627173e-06,1.53192368722e-05,-0.703287769202,0.710905277411,0.0,0.0,0.0,0.0,0.0,0.0,0.0,0.0,0.0,-1.03280942112e-07,1.64337949599e-08,-7.21815268012e-05,0.0,0.0,0.0,0.0,0.0,0.0,0.0,0.0,0.0,-0.000245120458682,-0.000177534796119,9.80998176238,0.0,0.0,0.0,0.0,0.0,0.0,0.0,0.0,0.0
117815250000,11080,117815250000,RH_EXTIMU,2.29371554886e-06,1.53191212973e-05,-0.703287833345,0.710905213956,0.0,0.0,0.0,0.0,0.0,0.0,0.0,0.0,0.0,1.16189917151e-07,-1.53473252791e-08,-7.21807632984e-05,0.0,0.0,0.0,0.0,0.0,0.0,0.0,0.0,0.0,-0.000245919893263,-0.000181354425988,9.81000829963,0.0,0.0,0.0,0.0,0.0,0.0,0.0,0.0,0.0
117817750000,11081,117817750000,RH_EXTIMU,2.29356483423e-06,1.53191175175e-05,-0.703287897486,0.710905150502,0.0,0.0,0.0,0.0,0.0,0.0,0.0,0.0,0.0,-8.26858616952e-08,-8.62863758714e-08,-7.21800781003e-05,0.0,0.0,0.0,0.0,0.0,0.0,0.0,0.0,0.0,-0.00024653876675,-0.000177867782103,9.80998484886,0.0,0.0,0.0,0.0,0.0,0.0,0.0,0.0,0.0
117820250000,11082,117820250000,RH_EXTIMU,2.29366496674e-06,1.53190255687e-05,-0.703287961627,0.710905087048,0.0,0.0,0.0,0.0,0.0,0.0,0.0,0.0,0.0,1.09583408647e-07,4.70408199622e-09,-7.21794474583e-05,0.0,0.0,0.0,0.0,0.0,0.0,0.0,0.0,0.0,-0.000245039319774,-0.000181355682441,9.80999444568,0.0,0.0,0.0,0.0,0.0,0.0,0.0,0.0,0.0
117822750000,11083,117822750000,RH_EXTIMU,2.29378833295e-06,1.5318962477e-05,-0.703288025767,0.710905023595,0.0,0.0,0.0,0.0,0.0,0.0,0.0,0.0,0.0,1.06561128218e-07,3.41877406042e-08,-7.21785992039e-05,0.0,0.0,0.0,0.0,0.0,0.0,0.0,0.0,0.0,-0.00024468876112,-0.000181171616384,9.81002275371,0.0,0.0,0.0,0.0,0.0,0.0,0.0,0.0,0.0
117825250000,11084,117825250000,RH_EXTIMU,2.29360382653e-06,1.53191384861e-05,-0.703288089907,0.710904960143,0.0,0.0,0.0,0.0,0.0,0.0,0.0,0.0,0.0,-2.03058814858e-07,-3.04841443468e-09,-7.21777533142e-05,0.0,0.0,0.0,0.0,0.0,0.0,0.0,0.0,0.0,-0.000245584579378,-0.000175469957056,9.8100033381,0.0,0.0,0.0,0.0,0.0,0.0,0.0,0.0,0.0
117827750000,11085,117827750000,RH_EXTIMU,2.29369030993e-06,1.53190989107e-05,-0.703288154045,0.710904896691,0.0,0.0,0.0,0.0,0.0,0.0,0.0,0.0,0.0,7.23539533095e-08,2.68106682297e-08,-7.21771742482e-05,0.0,0.0,0.0,0.0,0.0,0.0,0.0,0.0,0.0,-0.000244759855336,-0.000181412439511,9.80999313688,0.0,0.0,0.0,0.0,0.0,0.0,0.0,0.0,0.0
117830250000,11086,117830250000,RH_EXTIMU,2.29370369771e-06,1.53189843271e-05,-0.703288218184,0.71090483324,0.0,0.0,0.0,0.0,0.0,0.0,0.0,0.0,0.0,7.29846682943e-08,-5.69741562039e-08,-7.2176460484e-05,0.0,0.0,0.0,0.0,0.0,0.0,0.0,0.0,0.0,-0.000246457784194,-0.000180494376204,9.80999361466,0.0,0.0,0.0,0.0,0.0,0.0,0.0,0.0,0.0
117834000000,11087,117832750000,RH_EXTIMU,2.29374880968e-06,1.53189861815e-05,-0.703288282321,0.710904769789,0.0,0.0,0.0,0.0,0.0,0.0,0.0,0.0,0.0,2.55153657902e-08,2.70959136944e-08,-7.21758906825e-05,0.0,0.0,0.0,0.0,0.0,0.0,0.0,0.0,0.0,-0.00024444089491,-0.000179724970632,9.80998414998,0.0,0.0,0.0,0.0,0.0,0.0,0.0,0.0,0.0
117835250000,11088,117835250000,RH_EXTIMU,2.29384431474e-06,1.53188992091e-05,-0.703288346459,0.710904706339,0.0,0.0,0.0,0.0,0.0,0.0,0.0,0.0,0.0,1.04151767937e-07,4.93070927492e-09,-7.21752027048e-05,0.0,0.0,0.0,0.0,0.0,0.0,0.0,0.0,0.0,-0.0002456763195,-0.000181035924299,9.80999620849,0.0,0.0,0.0,0.0,0.0,0.0,0.0,0.0,0.0
117837750000,11089,117837750000,RH_EXTIMU,2.29392503979e-06,1.53188568556e-05,-0.703288410595,0.71090464289,0.0,0.0,0.0,0.0,0.0,0.0,0.0,0.0,0.0,7.06420829626e-08,2.19908083707e-08,-7.21743933102e-05,0.0,0.0,0.0,0.0,0.0,0.0,0.0,0.0,0.0,-0.000244774548526,-0.000180472599878,9.81001374013,0.0,0.0,0.0,0.0,0.0,0.0,0.0,0.0,0.0
117840250000,11090,117840250000,RH_EXTIMU,2.29383411463e-06,1.53189095618e-05,-0.703288474731,0.710904579442,0.0,0.0,0.0,0.0,0.0,0.0,0.0,0.0,0.0,-8.0462997141e-08,-2.05221520842e-08,-7.21736130557e-05,0.0,0.0,0.0,0.0,0.0,0.0,0.0,0.0,0.0,-0.000245817253437,-0.000177933731246,9.81000238445,0.0,0.0,0.0,0.0,0.0,0.0,0.0,0.0,0.0
117842750000,11091,117842750000,RH_EXTIMU,2.29379940787e-06,1.53189257598e-05,-0.703288538866,0.710904515994,0.0,0.0,0.0,0.0,0.0,0.0,0.0,0.0,0.0,-2.79496434611e-08,-9.65502627624e-09,-7.21729035466e-05,0.0,0.0,0.0,0.0,0.0,0.0,0.0,0.0,0.0,-0.000245269647221,-0.000179062655707,9.80999963835,0.0,0.0,0.0,0.0,0.0,0.0,0.0,0.0,0.0
117845250000,11092,117845250000,RH_EXTIMU,2.29391580474e-06,1.5318897069e-05,-0.703288603,0.710904452546,0.0,0.0,0.0,0.0,0.0,0.0,0.0,0.0,0.0,8.32423725969e-08,4.98312058449e-08,-7.21720619108e-05,0.0,0.0,0.0,0.0,0.0,0.0,0.0,0.0,0.0,-0.000244577714384,-0.000180931907794,9.81002265529,0.0,0.0,0.0,0.0,0.0,0.0,0.0,0.0,0.0
117847750000,11093,117847750000,RH_EXTIMU,2.29378125018e-06,1.53189690913e-05,-0.703288667134,0.7109043891,0.0,0.0,0.0,0.0,0.0,0.0,0.0,0.0,0.0,-1.16143928999e-07,-3.40839139757e-08,-7.21712456183e-05,0.0,0.0,0.0,0.0,0.0,0.0,0.0,0.0,0.0,-0.000245952644073,-0.000177430983727,9.8100057464,0.0,0.0,0.0,0.0,0.0,0.0,0.0,0.0,0.0
117850250000,11094,117850250000,RH_EXTIMU,2.29376947572e-06,1.53189997021e-05,-0.703288731267,0.710904325654,0.0,0.0,0.0,0.0,0.0,0.0,0.0,0.0,0.0,-2.30165903617e-08,1.14442430487e-08,-7.21705877692e-05,0.0,0.0,0.0,0.0,0.0,0.0,0.0,0.0,0.0,-0.000244928200716,-0.00017919965894,9.80999257573,0.0,0.0,0.0,0.0,0.0,0.0,0.0,0.0,0.0
117852750000,11095,117852750000,RH_EXTIMU,2.29391222813e-06,1.53189241669e-05,-0.703288795399,0.710904262209,0.0,0.0,0.0,0.0,0.0,0.0,0.0,0.0,0.0,1.24587473043e-07,3.80181438574e-08,-7.21700115213e-05,0.0,0.0,0.0,0.0,0.0,0.0,0.0,0.0,0.0,-0.000244793051607,-0.000181736454851,9.80999089093,0.0,0.0,0.0,0.0,0.0,0.0,0.0,0.0,0.0
117855250000,11096,117855250000,RH_EXTIMU,2.29408158877e-06,1.53188375657e-05,-0.703288859531,0.710904198764,0.0,0.0,0.0,0.0,0.0,0.0,0.0,0.0,0.0,1.45946262954e-07,4.66952492771e-08,-7.21692462596e-05,0.0,0.0,0.0,0.0,0.0,0.0,0.0,0.0,0.0,-0.000244319275825,-0.000182160434341,9.81001263084,0.0,0.0,0.0,0.0,0.0,0.0,0.0,0.0,0.0
117857750000,11097,117857750000,RH_EXTIMU,2.29385849259e-06,1.53189249544e-05,-0.703288923662,0.71090413532,0.0,0.0,0.0,0.0,0.0,0.0,0.0,0.0,0.0,-1.75145237034e-07,-7.51610452355e-08,-7.2168400897e-05,0.0,0.0,0.0,0.0,0.0,0.0,0.0,0.0,0.0,-0.00024749135331,-0.000175272691117,9.80999484185,0.0,0.0,0.0,0.0,0.0,0.0,0.0,0.0,0.0
117860250000,11098,117860250000,RH_EXTIMU,2.29387030537e-06,1.53188320026e-05,-0.703288987792,0.710904071876,0.0,0.0,0.0,0.0,0.0,0.0,0.0,0.0,0.0,5.99181116813e-08,-4.55577702514e-08,-7.21678356225e-05,0.0,0.0,0.0,0.0,0.0,0.0,0.0,0.0,0.0,-0.000245247084824,-0.000181255984365,9.80998723431,0.0,0.0,0.0,0.0,0.0,0.0,0.0,0.0,0.0
117862750000,11099,117862750000,RH_EXTIMU,2.29399719621e-06,1.53187233327e-05,-0.703289051922,0.710904008433,0.0,0.0,0.0,0.0,0.0,0.0,0.0,0.0,0.0,1.34209171098e-07,1.02494809842e-08,-7.21671997493e-05,0.0,0.0,0.0,0.0,0.0,0.0,0.0,0.0,0.0,-0.000245240994457,-0.00018153057982,9.80999387768,0.0,0.0,0.0,0.0,0.0,0.0,0.0,0.0,0.0
117865250000,11100,117865250000,RH_EXTIMU,2.29399746803e-06,1.53186713293e-05,-0.703289116052,0.710903944991,0.0,0.0,0.0,0.0,0.0,0.0,0.0,0.0,0.0,3.03156707213e-08,-2.87628271839e-08,-7.21663940848e-05,0.0,0.0,0.0,0.0,0.0,0.0,0.0,0.0,0.0,-0.00024574933073,-0.00017974890485,9.81000663858,0.0,0.0,0.0,0.0,0.0,0.0,0.0,0.0,0.0
117867750000,11101,117867750000,RH_EXTIMU,2.29396440763e-06,1.53186907067e-05,-0.70328918018,0.710903881549,0.0,0.0,0.0,0.0,0.0,0.0,0.0,0.0,0.0,-2.88022297627e-08,-6.92065188331e-09,-7.21656007441e-05,0.0,0.0,0.0,0.0,0.0,0.0,0.0,0.0,0.0,-0.00024525769481,-0.000178826343134,9.8100085921,0.0,0.0,0.0,0.0,0.0,0.0,0.0,0.0,0.0
117870250000,11102,117870250000,RH_EXTIMU,2.29394633718e-06,1.53187487937e-05,-0.703289244308,0.710903818108,0.0,0.0,0.0,0.0,0.0,0.0,0.0,0.0,0.0,-4.20563221765e-08,2.35281775551e-08,-7.21648537229e-05,0.0,0.0,0.0,0.0,0.0,0.0,0.0,0.0,0.0,-0.00024497837777,-0.000178712729759,9.81000443016,0.0,0.0,0.0,0.0,0.0,0.0,0.0,0.0,0.0
117872750000,11103,117872750000,RH_EXTIMU,2.29395143597e-06,1.53187564506e-05,-0.703289308435,0.710903754668,0.0,0.0,0.0,0.0,0.0,0.0,0.0,0.0,0.0,-5.05902162341e-10,7.88316821443e-09,-7.21641320151e-05,0.0,0.0,0.0,0.0,0.0,0.0,0.0,0.0,0.0,-0.000245254080177,-0.000179525852995,9.81000090119,0.0,0.0,0.0,0.0,0.0,0.0,0.0,0.0,0.0
117875250000,11104,117875250000,RH_EXTIMU,2.2940317782e-06,1.53187306818e-05,-0.703289372562,0.710903691228,0.0,0.0,0.0,0.0,0.0,0.0,0.0,0.0,0.0,6.10931029064e-08,3.12075283234e-08,-7.21634365474e-05,0.0,0.0,0.0,0.0,0.0,0.0,0.0,0.0,0.0,-0.000244781079594,-0.000180580237773,9.81000131487,0.0,0.0,0.0,0.0,0.0,0.0,0.0,0.0,0.0
117875250000,11105,117877750000,RH_EXTIMU,2.29407251297e-06,1.53187061399e-05,-0.703289436688,0.710903627789,0.0,0.0,0.0,0.0,0.0,0.0,0.0,0.0,0.0,3.78770899998e-08,9.62091861207e-09,-7.21627167673e-05,0.0,0.0,0.0,0.0,0.0,0.0,0.0,0.0,0.0,-0.00024525321109,-0.000180024442593,9.81000030626,0.0,0.0,0.0,0.0,0.0,0.0,0.0,0.0,0.0
117880250000,11106,117880250000,RH_EXTIMU,2.29394346129e-06,1.53187137403e-05,-0.703289500813,0.710903564351,0.0,0.0,0.0,0.0,0.0,0.0,0.0,0.0,0.0,-7.67685911979e-08,-6.7626273803e-08,-7.21620025486e-05,0.0,0.0,0.0,0.0,0.0,0.0,0.0,0.0,0.0,-0.000246825806567,-0.000177526781539,9.80998713842,0.0,0.0,0.0,0.0,0.0,0.0,0.0,0.0,0.0
117884000000,11107,117882750000,RH_EXTIMU,2.29404581733e-06,1.53186108043e-05,-0.703289564938,0.710903500913,0.0,0.0,0.0,0.0,0.0,0.0,0.0,0.0,0.0,1.17029581377e-07,-2.93608688345e-10,-7.21614199097e-05,0.0,0.0,0.0,0.0,0.0,0.0,0.0,0.0,0.0,-0.000244569905607,-0.000182029511277,9.80999251816,0.0,0.0,0.0,0.0,0.0,0.0,0.0,0.0,0.0
117884000000,11108,117885250000,RH_EXTIMU,2.29414299372e-06,1.53185815823e-05,-0.703289629062,0.710903437475,0.0,0.0,0.0,0.0,0.0,0.0,0.0,0.0,0.0,7.26098806917e-08,3.87150493313e-08,-7.21607138281e-05,0.0,0.0,0.0,0.0,0.0,0.0,0.0,0.0,0.0,-0.000244850404153,-0.000180295769757,9.80999865111,0.0,0.0,0.0,0.0,0.0,0.0,0.0,0.0,0.0
117884000000,11109,117887750000,RH_EXTIMU,2.29426229492e-06,1.53185869049e-05,-0.703289693185,0.710903374039,0.0,0.0,0.0,0.0,0.0,0.0,0.0,0.0,0.0,6.57568843785e-08,7.08094613516e-08,-7.21600789352e-05,0.0,0.0,0.0,0.0,0.0,0.0,0.0,0.0,0.0,-0.000244120720586,-0.000180585559964,9.80999456027,0.0,0.0,0.0,0.0,0.0,0.0,0.0,0.0,0.0
117890250000,11110,117890250000,RH_EXTIMU,2.29429101847e-06,1.53185391872e-05,-0.703289757308,0.710903310602,0.0,0.0,0.0,0.0,0.0,0.0,0.0,0.0,0.0,4.40854787474e-08,-1.03176479115e-08,-7.21593485472e-05,0.0,0.0,0.0,0.0,0.0,0.0,0.0,0.0,0.0,-0.00024598638619,-0.000179927910379,9.80999922387,0.0,0.0,0.0,0.0,0.0,0.0,0.0,0.0,0.0
117892750000,11111,117892750000,RH_EXTIMU,2.2941041534e-06,1.53184819463e-05,-0.70328982143,0.710903247167,0.0,0.0,0.0,0.0,0.0,0.0,0.0,0.0,0.0,-7.31666244212e-08,-1.37030714333e-07,-7.2158588209e-05,0.0,0.0,0.0,0.0,0.0,0.0,0.0,0.0,0.0,-0.000247453395218,-0.00017797132513,9.8099900986,0.0,0.0,0.0,0.0,0.0,0.0,0.0,0.0,0.0
117895250000,11112,117895250000,RH_EXTIMU,2.29425346957e-06,1.53183901638e-05,-0.703289885552,0.710903183732,0.0,0.0,0.0,0.0,0.0,0.0,0.0,0.0,0.0,1.37461504593e-07,3.24709042037e-08,-7.21579061012e-05,0.0,0.0,0.0,0.0,0.0,0.0,0.0,0.0,0.0,-0.000244139082073,-0.000182088026236,9.81000856193,0.0,0.0,0.0,0.0,0.0,0.0,0.0,0.0,0.0
117897750000,11113,117897750000,RH_EXTIMU,2.29416494343e-06,1.53184488473e-05,-0.703289949673,0.710903120298,0.0,0.0,0.0,0.0,0.0,0.0,0.0,0.0,0.0,-8.24618317088e-08,-1.57733085925e-08,-7.21570918639e-05,0.0,0.0,0.0,0.0,0.0,0.0,0.0,0.0,0.0,-0.000246119398294,-0.000177390627532,9.8100015463,0.0,0.0,0.0,0.0,0.0,0.0,0.0,0.0,0.0
117900250000,11114,117900250000,RH_EXTIMU,2.29410472943e-06,1.53184276885e-05,-0.703290013793,0.710903056864,0.0,0.0,0.0,0.0,0.0,0.0,0.0,0.0,0.0,-2.14382408851e-08,-4.52521220134e-08,-7.21564083489e-05,0.0,0.0,0.0,0.0,0.0,0.0,0.0,0.0,0.0,-0.000245812946347,-0.000179235755088,9.80999377703,0.0,0.0,0.0,0.0,0.0,0.0,0.0,0.0,0.0
117902750000,11115,117902750000,RH_EXTIMU,2.29432176047e-06,1.53183109613e-05,-0.703290077913,0.710902993431,0.0,0.0,0.0,0.0,0.0,0.0,0.0,0.0,0.0,1.90007068417e-07,5.63829202735e-08,-7.21556984201e-05,0.0,0.0,0.0,0.0,0.0,0.0,0.0,0.0,0.0,-0.000243933948847,-0.000183371690358,9.81001690066,0.0,0.0,0.0,0.0,0.0,0.0,0.0,0.0,0.0
117905250000,11116,117905250000,RH_EXTIMU,2.29425633309e-06,1.53184307013e-05,-0.703290142032,0.710902929999,0.0,0.0,0.0,0.0,0.0,0.0,0.0,0.0,0.0,-1.03677417063e-07,3.19469480106e-08,-7.21547740435e-05,0.0,0.0,0.0,0.0,0.0,0.0,0.0,0.0,0.0,-0.000245241122195,-0.000176858238855,9.81001561565,0.0,0.0,0.0,0.0,0.0,0.0,0.0,0.0,0.0
117907750000,11117,117907750000,RH_EXTIMU,2.29409991426e-06,1.53185055725e-05,-0.70329020615,0.710902866567,0.0,0.0,0.0,0.0,0.0,0.0,0.0,0.0,0.0,-1.30181623199e-07,-4.47657064785e-08,-7.21541414544e-05,0.0,0.0,0.0,0.0,0.0,0.0,0.0,0.0,0.0,-0.000246038366215,-0.000177480854079,9.80998410192,0.0,0.0,0.0,0.0,0.0,0.0,0.0,0.0,0.0
117910250000,11118,117910250000,RH_EXTIMU,2.29422321576e-06,1.53184521757e-05,-0.703290270267,0.710902803136,0.0,0.0,0.0,0.0,0.0,0.0,0.0,0.0,0.0,1.01069203007e-07,3.96651282868e-08,-7.21534736193e-05,0.0,0.0,0.0,0.0,0.0,0.0,0.0,0.0,0.0,-0.000244570304429,-0.000181155932692,9.81000127256,0.0,0.0,0.0,0.0,0.0,0.0,0.0,0.0,0.0
117912750000,11119,117912750000,RH_EXTIMU,2.29421699811e-06,1.53184450626e-05,-0.703290334384,0.710902739706,0.0,0.0,0.0,0.0,0.0,0.0,0.0,0.0,0.0,1.3681109972e-09,-6.88399752662e-09,-7.21527374875e-05,0.0,0.0,0.0,0.0,0.0,0.0,0.0,0.0,0.0,-0.000245617227321,-0.000179260069057,9.8099970186,0.0,0.0,0.0,0.0,0.0,0.0,0.0,0.0,0.0
117915250000,11120,117915250000,RH_EXTIMU,2.2943531705e-06,1.53183193664e-05,-0.703290398501,0.710902676276,0.0,0.0,0.0,0.0,0.0,0.0,0.0,0.0,0.0,1.49067136159e-07,5.78841071652e-09,-7.21520554986e-05,0.0,0.0,0.0,0.0,0.0,0.0,0.0,0.0,0.0,-0.000245044336547,-0.000182469486928,9.81000417563,0.0,0.0,0.0,0.0,0.0,0.0,0.0,0.0,0.0
117917750000,11121,117917750000,RH_EXTIMU,2.2943312631e-06,1.53183068237e-05,-0.703290462616,0.710902612847,0.0,0.0,0.0,0.0,0.0,0.0,0.0,0.0,0.0,-4.50014401742e-09,-1.87995163783e-08,-7.21512374153e-05,0.0,0.0,0.0,0.0,0.0,0.0,0.0,0.0,0.0,-0.000245691520598,-0.000178766145237,9.81000834715,0.0,0.0,0.0,0.0,0.0,0.0,0.0,0.0,0.0
117920250000,11122,117920250000,RH_EXTIMU,2.29433251426e-06,1.53183856406e-05,-0.703290526731,0.710902549419,0.0,0.0,0.0,0.0,0.0,0.0,0.0,0.0,0.0,-4.27312668137e-08,4.61884903714e-08,-7.21505018464e-05,0.0,0.0,0.0,0.0,0.0,0.0,0.0,0.0,0.0,-0.000244474272161,-0.000178791389872,9.81000506184,0.0,0.0,0.0,0.0,0.0,0.0,0.0,0.0,0.0
117922750000,11123,117922750000,RH_EXTIMU,2.29438340581e-06,1.53183650263e-05,-0.703290590846,0.710902485991,0.0,0.0,0.0,0.0,0.0,0.0,0.0,0.0,0.0,4.14435740743e-08,1.75690012982e-08,-7.21497643765e-05,0.0,0.0,0.0,0.0,0.0,0.0,0.0,0.0,0.0,-0.000245179737269,-0.000180409699523,9.81000577403,0.0,0.0,0.0,0.0,0.0,0.0,0.0,0.0,0.0
117926500000,11124,117925250000,RH_EXTIMU,2.29420480503e-06,1.53184063003e-05,-0.70329065496,0.710902422564,0.0,0.0,0.0,0.0,0.0,0.0,0.0,0.0,0.0,-1.23894194024e-07,-7.63535399714e-08,-7.21491804472e-05,0.0,0.0,0.0,0.0,0.0,0.0,0.0,0.0,0.0,-0.000246497012585,-0.000177008695411,9.80996950736,0.0,0.0,0.0,0.0,0.0,0.0,0.0,0.0,0.0
117927750000,11125,117927750000,RH_EXTIMU,2.2944291238e-06,1.53182289498e-05,-0.703290719073,0.710902359137,0.0,0.0,0.0,0.0,0.0,0.0,0.0,0.0,0.0,2.28260309748e-07,2.60054786683e-08,-7.21485600015e-05,0.0,0.0,0.0,0.0,0.0,0.0,0.0,0.0,0.0,-0.000244791117847,-0.000183519759132,9.81000039953,0.0,0.0,0.0,0.0,0.0,0.0,0.0,0.0,0.0
117930250000,11126,117930250000,RH_EXTIMU,2.29456070467e-06,1.53182530912e-05,-0.703290783185,0.710902295711,0.0,0.0,0.0,0.0,0.0,0.0,0.0,0.0,0.0,6.21522549129e-08,8.84210301812e-08,-7.2147751644e-05,0.0,0.0,0.0,0.0,0.0,0.0,0.0,0.0,0.0,-0.000243852531168,-0.000180016919264,9.81001333144,0.0,0.0,0.0,0.0,0.0,0.0,0.0,0.0,0.0
117932750000,11127,117932750000,RH_EXTIMU,2.29431967544e-06,1.53183222486e-05,-0.703290847297,0.710902232285,0.0,0.0,0.0,0.0,0.0,0.0,0.0,0.0,0.0,-1.75086705629e-07,-9.56200179694e-08,-7.21469529981e-05,0.0,0.0,0.0,0.0,0.0,0.0,0.0,0.0,0.0,-0.000247275199491,-0.000176145473723,9.80999474039,0.0,0.0,0.0,0.0,0.0,0.0,0.0,0.0,0.0
117935250000,11128,117935250000,RH_EXTIMU,2.29440937657e-06,1.53181998972e-05,-0.703290911408,0.710902168861,0.0,0.0,0.0,0.0,0.0,0.0,0.0,0.0,0.0,1.20755944298e-07,-1.84555310997e-08,-7.21462475188e-05,0.0,0.0,0.0,0.0,0.0,0.0,0.0,0.0,0.0,-0.000245400806271,-0.000181936345996,9.81000467535,0.0,0.0,0.0,0.0,0.0,0.0,0.0,0.0,0.0
117937750000,11129,117937750000,RH_EXTIMU,2.29436909093e-06,1.53181554056e-05,-0.703290975519,0.710902105436,0.0,0.0,0.0,0.0,0.0,0.0,0.0,0.0,0.0,3.02317338339e-09,-4.73098011689e-08,-7.21455129095e-05,0.0,0.0,0.0,0.0,0.0,0.0,0.0,0.0,0.0,-0.000245992317878,-0.000179262093885,9.80999842626,0.0,0.0,0.0,0.0,0.0,0.0,0.0,0.0,0.0
117940250000,11130,117940250000,RH_EXTIMU,2.29437377465e-06,1.5318132894e-05,-0.703291039629,0.710902042013,0.0,0.0,0.0,0.0,0.0,0.0,0.0,0.0,0.0,1.62315722049e-08,-9.50810329743e-09,-7.21448137131e-05,0.0,0.0,0.0,0.0,0.0,0.0,0.0,0.0,0.0,-0.000245353748295,-0.000179655494027,9.80999737692,0.0,0.0,0.0,0.0,0.0,0.0,0.0,0.0,0.0
117942750000,11131,117942750000,RH_EXTIMU,2.29442410713e-06,1.53180828491e-05,-0.703291103738,0.71090197859,0.0,0.0,0.0,0.0,0.0,0.0,0.0,0.0,0.0,5.7684126442e-08,5.16629073019e-10,-7.21441333636e-05,0.0,0.0,0.0,0.0,0.0,0.0,0.0,0.0,0.0,-0.000245253499565,-0.000180441821452,9.80999696906,0.0,0.0,0.0,0.0,0.0,0.0,0.0,0.0,0.0
117945250000,11132,117945250000,RH_EXTIMU,2.29449498249e-06,1.53181308138e-05,-0.703291167846,0.710901915168,0.0,0.0,0.0,0.0,0.0,0.0,0.0,0.0,0.0,1.42238122146e-08,6.78149387639e-08,-7.21434120757e-05,0.0,0.0,0.0,0.0,0.0,0.0,0.0,0.0,0.0,-0.0002440680045,-0.000179432803297,9.81000557869,0.0,0.0,0.0,0.0,0.0,0.0,0.0,0.0,0.0
117950250000,11133,117947750000,RH_EXTIMU,2.29443659611e-06,1.53181433149e-05,-0.703291231954,0.710901851746,0.0,0.0,0.0,0.0,0.0,0.0,0.0,0.0,0.0,-3.93370569492e-08,-2.50809626356e-08,-7.21427477903e-05,0.0,0.0,0.0,0.0,0.0,0.0,0.0,0.0,0.0,-0.00024598606336,-0.000178794836883,9.80998606516,0.0,0.0,0.0,0.0,0.0,0.0,0.0,0.0,0.0
117950250000,11134,117950250000,RH_EXTIMU,2.29451989816e-06,1.53180412625e-05,-0.703291296062,0.710901788325,0.0,0.0,0.0,0.0,0.0,0.0,0.0,0.0,0.0,1.05695690891e-07,-1.05113526324e-08,-7.21420160606e-05,0.0,0.0,0.0,0.0,0.0,0.0,0.0,0.0,0.0,-0.000245512957839,-0.000181131501575,9.81000448162,0.0,0.0,0.0,0.0,0.0,0.0,0.0,0.0,0.0
117952750000,11135,117952750000,RH_EXTIMU,2.29452616437e-06,1.53180299509e-05,-0.703291360169,0.710901724905,0.0,0.0,0.0,0.0,0.0,0.0,0.0,0.0,0.0,1.08300273081e-08,-2.24807237174e-09,-7.21412979535e-05,0.0,0.0,0.0,0.0,0.0,0.0,0.0,0.0,0.0,-0.000245217353355,-0.000179529803524,9.80999875337,0.0,0.0,0.0,0.0,0.0,0.0,0.0,0.0,0.0
117955250000,11136,117955250000,RH_EXTIMU,2.29456191799e-06,1.53180276648e-05,-0.703291424275,0.710901661485,0.0,0.0,0.0,0.0,0.0,0.0,0.0,0.0,0.0,2.25220707437e-08,1.9475521828e-08,-7.21405611531e-05,0.0,0.0,0.0,0.0,0.0,0.0,0.0,0.0,0.0,-0.00024499357425,-0.000179714071188,9.81000483327,0.0,0.0,0.0,0.0,0.0,0.0,0.0,0.0,0.0
117957750000,11137,117957750000,RH_EXTIMU,2.29450678974e-06,1.53180162433e-05,-0.70329148838,0.710901598066,0.0,0.0,0.0,0.0,0.0,0.0,0.0,0.0,0.0,-2.40245027533e-08,-3.68531515094e-08,-7.2139773708e-05,0.0,0.0,0.0,0.0,0.0,0.0,0.0,0.0,0.0,-0.000246065338548,-0.000178947436708,9.8100037468,0.0,0.0,0.0,0.0,0.0,0.0,0.0,0.0,0.0
117960250000,11138,117960250000,RH_EXTIMU,2.29454110508e-06,1.53179932928e-05,-0.703291552485,0.710901534647,0.0,0.0,0.0,0.0,0.0,0.0,0.0,0.0,0.0,3.33305641514e-08,6.91399423605e-09,-7.21390818704e-05,0.0,0.0,0.0,0.0,0.0,0.0,0.0,0.0,0.0,-0.000244997922495,-0.000180144171537,9.81000021635,0.0,0.0,0.0,0.0,0.0,0.0,0.0,0.0,0.0
117962750000,11139,117962750000,RH_EXTIMU,2.2945599764e-06,1.53179904013e-05,-0.703291616589,0.710901471229,0.0,0.0,0.0,0.0,0.0,0.0,0.0,0.0,0.0,1.32613578165e-08,9.63263566091e-09,-7.21384489064e-05,0.0,0.0,0.0,0.0,0.0,0.0,0.0,0.0,0.0,-0.000245037057529,-0.000179652255868,9.80998890925,0.0,0.0,0.0,0.0,0.0,0.0,0.0,0.0,0.0
117965250000,11140,117965250000,RH_EXTIMU,2.29476396381e-06,1.53178906141e-05,-0.703291680692,0.710901407812,0.0,0.0,0.0,0.0,0.0,0.0,0.0,0.0,0.0,1.73057519201e-07,5.86784837545e-08,-7.21377540944e-05,0.0,0.0,0.0,0.0,0.0,0.0,0.0,0.0,0.0,-0.000244314314458,-0.000182595470489,9.81000894169,0.0,0.0,0.0,0.0,0.0,0.0,0.0,0.0,0.0
117967750000,11141,117967750000,RH_EXTIMU,2.29458851795e-06,1.53179588095e-05,-0.703291744795,0.710901344395,0.0,0.0,0.0,0.0,0.0,0.0,0.0,0.0,0.0,-1.37246831623e-07,-5.92680635913e-08,-7.21369385449e-05,0.0,0.0,0.0,0.0,0.0,0.0,0.0,0.0,0.0,-0.000246655155014,-0.000176350795034,9.80999536948,0.0,0.0,0.0,0.0,0.0,0.0,0.0,0.0,0.0
117970250000,11142,117970250000,RH_EXTIMU,2.29457988502e-06,1.53179808714e-05,-0.703291808897,0.710901280979,0.0,0.0,0.0,0.0,0.0,0.0,0.0,0.0,0.0,-1.64205169058e-08,8.34931302744e-09,-7.21362904981e-05,0.0,0.0,0.0,0.0,0.0,0.0,0.0,0.0,0.0,-0.000244928119295,-0.000179123446168,9.80999339681,0.0,0.0,0.0,0.0,0.0,0.0,0.0,0.0,0.0
117972750000,11143,117972750000,RH_EXTIMU,2.29487254989e-06,1.53179011831e-05,-0.703291872999,0.710901217564,0.0,0.0,0.0,0.0,0.0,0.0,0.0,0.0,0.0,2.12181903804e-07,1.20002088873e-07,-7.21356470307e-05,0.0,0.0,0.0,0.0,0.0,0.0,0.0,0.0,0.0,-0.00024294471992,-0.000183896397151,9.81001080849,0.0,0.0,0.0,0.0,0.0,0.0,0.0,0.0,0.0
117975250000,11144,117975250000,RH_EXTIMU,2.29470655891e-06,1.53179740384e-05,-0.7032919371,0.710901154149,0.0,0.0,0.0,0.0,0.0,0.0,0.0,0.0,0.0,-1.34491494367e-07,-5.12982867263e-08,-7.21347489318e-05,0.0,0.0,0.0,0.0,0.0,0.0,0.0,0.0,0.0,-0.000247387977689,-0.000175771425055,9.8100018062,0.0,0.0,0.0,0.0,0.0,0.0,0.0,0.0,0.0
117977750000,11145,117977750000,RH_EXTIMU,2.29474459421e-06,1.53179363488e-05,-0.7032920012,0.710901090735,0.0,0.0,0.0,0.0,0.0,0.0,0.0,0.0,0.0,4.37388541048e-08,6.24478350098e-10,-7.21340481274e-05,0.0,0.0,0.0,0.0,0.0,0.0,0.0,0.0,0.0,-0.000244292799577,-0.000181157166198,9.8100100892,0.0,0.0,0.0,0.0,0.0,0.0,0.0,0.0,0.0
117980250000,11146,117980250000,RH_EXTIMU,2.29475249471e-06,1.53179650765e-05,-0.7032920653,0.710901027321,0.0,0.0,0.0,0.0,0.0,0.0,0.0,0.0,0.0,-1.07680644751e-08,2.14425323898e-08,-7.21333083103e-05,0.0,0.0,0.0,0.0,0.0,0.0,0.0,0.0,0.0,-0.000245356689708,-0.000178900479343,9.80999906106,0.0,0.0,0.0,0.0,0.0,0.0,0.0,0.0,0.0
117982750000,11147,117982750000,RH_EXTIMU,2.29475599279e-06,1.53179545147e-05,-0.703292129399,0.710900963908,0.0,0.0,0.0,0.0,0.0,0.0,0.0,0.0,0.0,8.83374506784e-09,-3.37915677452e-09,-7.21326432379e-05,0.0,0.0,0.0,0.0,0.0,0.0,0.0,0.0,0.0,-0.000245451278688,-0.000179489694006,9.80999178746,0.0,0.0,0.0,0.0,0.0,0.0,0.0,0.0,0.0
117985250000,11148,117985250000,RH_EXTIMU,2.29492038147e-06,1.53178730901e-05,-0.703292193497,0.710900900496,0.0,0.0,0.0,0.0,0.0,0.0,0.0,0.0,0.0,1.40205384598e-07,4.68421482061e-08,-7.21319344338e-05,0.0,0.0,0.0,0.0,0.0,0.0,0.0,0.0,0.0,-0.00024447977043,-0.000181965865006,9.81000892619,0.0,0.0,0.0,0.0,0.0,0.0,0.0,0.0,0.0
117987750000,11149,117987750000,RH_EXTIMU,2.29472278314e-06,1.53178623356e-05,-0.703292257595,0.710900837085,0.0,0.0,0.0,0.0,0.0,0.0,0.0,0.0,0.0,-1.05425544851e-07,-1.16632396966e-07,-7.21311187582e-05,0.0,0.0,0.0,0.0,0.0,0.0,0.0,0.0,0.0,-0.000247493566079,-0.000177246084925,9.8099961299,0.0,0.0,0.0,0.0,0.0,0.0,0.0,0.0,0.0
117990250000,11150,117990250000,RH_EXTIMU,2.29471291297e-06,1.53178238356e-05,-0.703292321692,0.710900773674,0.0,0.0,0.0,0.0,0.0,0.0,0.0,0.0,0.0,1.69499258989e-08,-2.67896608166e-08,-7.21304292352e-05,0.0,0.0,0.0,0.0,0.0,0.0,0.0,0.0,0.0,-0.000245299268502,-0.00017981566964,9.809998558,0.0,0.0,0.0,0.0,0.0,0.0,0.0,0.0,0.0
117992750000,11151,117992750000,RH_EXTIMU,2.29487490078e-06,1.53177743856e-05,-0.703292385788,0.710900710263,0.0,0.0,0.0,0.0,0.0,0.0,0.0,0.0,0.0,1.20849877791e-07,6.3676002744e-08,-7.21297231453e-05,0.0,0.0,0.0,0.0,0.0,0.0,0.0,0.0,0.0,-0.000243973748896,-0.000181830880042,9.81001112392,0.0,0.0,0.0,0.0,0.0,0.0,0.0,0.0,0.0
117995250000,11152,117995250000,RH_EXTIMU,2.29470271854e-06,1.53178921731e-05,-0.703292449884,0.710900646854,0.0,0.0,0.0,0.0,0.0,0.0,0.0,0.0,0.0,-1.63292963512e-07,-2.92280333964e-08,-7.21288893694e-05,0.0,0.0,0.0,0.0,0.0,0.0,0.0,0.0,0.0,-0.000246538263906,-0.000175678977443,9.80999563973,0.0,0.0,0.0,0.0,0.0,0.0,0.0,0.0,0.0
117997750000,11153,117997750000,RH_EXTIMU,2.29479577892e-06,1.5317776804e-05,-0.703292513979,0.710900583445,0.0,0.0,0.0,0.0,0.0,0.0,0.0,0.0,0.0,1.1873777786e-07,-1.25944895054e-08,-7.21283315069e-05,0.0,0.0,0.0,0.0,0.0,0.0,0.0,0.0,0.0,-0.000245066689004,-0.000182291407342,9.80999207723,0.0,0.0,0.0,0.0,0.0,0.0,0.0,0.0,0.0
118000250000,11154,118000250000,RH_EXTIMU,2.29470991182e-06,1.53177367941e-05,-0.703292578073,0.710900520036,0.0,0.0,0.0,0.0,0.0,0.0,0.0,0.0,0.0,-2.54215914612e-08,-7.04068569309e-08,-7.21275955105e-05,0.0,0.0,0.0,0.0,0.0,0.0,0.0,0.0,0.0,-0.00024654861863,-0.000178374003025,9.80999064678,0.0,0.0,0.0,0.0,0.0,0.0,0.0,0.0,0.0
118002750000,11155,118002750000,RH_EXTIMU,2.2948727564e-06,1.53176947204e-05,-0.703292642167,0.710900456628,0.0,0.0,0.0,0.0,0.0,0.0,0.0,0.0,0.0,1.17186961571e-07,6.83530747235e-08,-7.21268891277e-05,0.0,0.0,0.0,0.0,0.0,0.0,0.0,0.0,0.0,-0.000243925612119,-0.000181520462694,9.81000906816,0.0,0.0,0.0,0.0,0.0,0.0,0.0,0.0,0.0
118005250000,11156,118005250000,RH_EXTIMU,2.29480205256e-06,1.53177109545e-05,-0.70329270626,0.710900393221,0.0,0.0,0.0,0.0,0.0,0.0,0.0,0.0,0.0,-4.8442768903e-08,-2.98883780686e-08,-7.21261265037e-05,0.0,0.0,0.0,0.0,0.0,0.0,0.0,0.0,0.0,-0.000246271617064,-0.000178291519161,9.80999716458,0.0,0.0,0.0,0.0,0.0,0.0,0.0,0.0,0.0
118007750000,11157,118007750000,RH_EXTIMU,2.2948404439e-06,1.53176537834e-05,-0.703292770353,0.710900329814,0.0,0.0,0.0,0.0,0.0,0.0,0.0,0.0,0.0,5.49021542833e-08,-1.02547559566e-08,-7.21254773706e-05,0.0,0.0,0.0,0.0,0.0,0.0,0.0,0.0,0.0,-0.000244924939374,-0.00018060466832,9.80999428621,0.0,0.0,0.0,0.0,0.0,0.0,0.0,0.0,0.0
118010250000,11158,118010250000,RH_EXTIMU,2.29495114122e-06,1.53176236779e-05,-0.703292834444,0.710900266408,0.0,0.0,0.0,0.0,0.0,0.0,0.0,0.0,0.0,8.07959773286e-08,4.58198222257e-08,-7.212484162e-05,0.0,0.0,0.0,0.0,0.0,0.0,0.0,0.0,0.0,-0.00024481014205,-0.000180667825335,9.80999390266,0.0,0.0,0.0,0.0,0.0,0.0,0.0,0.0,0.0
118012750000,11159,118012750000,RH_EXTIMU,2.29500992391e-06,1.53175423162e-05,-0.703292898536,0.710900203003,0.0,0.0,0.0,0.0,0.0,0.0,0.0,0.0,0.0,8.01095496325e-08,-1.25395546367e-08,-7.21240971674e-05,0.0,0.0,0.0,0.0,0.0,0.0,0.0,0.0,0.0,-0.000245515656616,-0.00018076863324,9.81000375961,0.0,0.0,0.0,0.0,0.0,0.0,0.0,0.0,0.0
118015250000,11160,118015250000,RH_EXTIMU,2.29496472284e-06,1.53175735559e-05,-0.703292962626,0.710900139598,0.0,0.0,0.0,0.0,0.0,0.0,0.0,0.0,0.0,-4.23815085437e-08,-7.00572964288e-09,-7.21232346707e-05,0.0,0.0,0.0,0.0,0.0,0.0,0.0,0.0,0.0,-0.000245490282352,-0.000178289855974,9.81001472363,0.0,0.0,0.0,0.0,0.0,0.0,0.0,0.0,0.0
118017750000,11161,118017750000,RH_EXTIMU,2.29481227567e-06,1.53176557041e-05,-0.703293026716,0.710900076194,0.0,0.0,0.0,0.0,0.0,0.0,0.0,0.0,0.0,-1.32017392431e-07,-3.83934091443e-08,-7.21225440758e-05,0.0,0.0,0.0,0.0,0.0,0.0,0.0,0.0,0.0,-0.000245823151737,-0.0001772444407,9.80999029849,0.0,0.0,0.0,0.0,0.0,0.0,0.0,0.0,0.0
118020250000,11162,118020250000,RH_EXTIMU,2.29505289223e-06,1.53176334366e-05,-0.703293090806,0.71090001279,0.0,0.0,0.0,0.0,0.0,0.0,0.0,0.0,0.0,1.50273679607e-07,1.23374492494e-07,-7.21219215234e-05,0.0,0.0,0.0,0.0,0.0,0.0,0.0,0.0,0.0,-0.000243080902751,-0.000182263773304,9.8100042213,0.0,0.0,0.0,0.0,0.0,0.0,0.0,0.0,0.0
118022750000,11163,118022750000,RH_EXTIMU,2.2949684849e-06,1.53176358508e-05,-0.703293154894,0.710899949387,0.0,0.0,0.0,0.0,0.0,0.0,0.0,0.0,0.0,-4.84606848508e-08,-4.54582002935e-08,-7.21211664071e-05,0.0,0.0,0.0,0.0,0.0,0.0,0.0,0.0,0.0,-0.0002465428001,-0.000178229191035,9.8099932519,0.0,0.0,0.0,0.0,0.0,0.0,0.0,0.0,0.0
118025250000,11164,118025250000,RH_EXTIMU,2.2950193336e-06,1.53175568799e-05,-0.703293218982,0.710899885985,0.0,0.0,0.0,0.0,0.0,0.0,0.0,0.0,0.0,7.42521981142e-08,-1.56438481482e-08,-7.21204438871e-05,0.0,0.0,0.0,0.0,0.0,0.0,0.0,0.0,0.0,-0.000245375855196,-0.000180873394636,9.81000468018,0.0,0.0,0.0,0.0,0.0,0.0,0.0,0.0,0.0
118027750000,11165,118027750000,RH_EXTIMU,2.29506380793e-06,1.53175325644e-05,-0.70329328307,0.710899822584,0.0,0.0,0.0,0.0,0.0,0.0,0.0,0.0,0.0,3.98759173412e-08,1.18533396239e-08,-7.21196443822e-05,0.0,0.0,0.0,0.0,0.0,0.0,0.0,0.0,0.0,-0.000244940439218,-0.000180079158255,9.81001256123,0.0,0.0,0.0,0.0,0.0,0.0,0.0,0.0,0.0
118030250000,11166,118030250000,RH_EXTIMU,2.29487577296e-06,1.53175929927e-05,-0.703293347156,0.710899759183,0.0,0.0,0.0,0.0,0.0,0.0,0.0,0.0,0.0,-1.40036564543e-07,-7.07689400556e-08,-7.21190270456e-05,0.0,0.0,0.0,0.0,0.0,0.0,0.0,0.0,0.0,-0.000246607838819,-0.000176757339901,9.80997395283,0.0,0.0,0.0,0.0,0.0,0.0,0.0,0.0,0.0
118032750000,11167,118032750000,RH_EXTIMU,2.29498295959e-06,1.53174114095e-05,-0.703293411242,0.710899695782,0.0,0.0,0.0,0.0,0.0,0.0,0.0,0.0,0.0,1.64025882922e-07,-4.23037852573e-08,-7.2118377418e-05,0.0,0.0,0.0,0.0,0.0,0.0,0.0,0.0,0.0,-0.000246030759473,-0.000182246166926,9.8099945412,0.0,0.0,0.0,0.0,0.0,0.0,0.0,0.0,0.0
118035250000,11168,118035250000,RH_EXTIMU,2.29511026078e-06,1.53173478217e-05,-0.703293475328,0.710899632382,0.0,0.0,0.0,0.0,0.0,0.0,0.0,0.0,0.0,1.09077120621e-07,3.61196448822e-08,-7.21176282619e-05,0.0,0.0,0.0,0.0,0.0,0.0,0.0,0.0,0.0,-0.000244474101917,-0.000181055228124,9.81000934319,0.0,0.0,0.0,0.0,0.0,0.0,0.0,0.0,0.0
118037750000,11169,118037750000,RH_EXTIMU,2.29513783342e-06,1.53173738748e-05,-0.703293539413,0.710899568983,0.0,0.0,0.0,0.0,0.0,0.0,0.0,0.0,0.0,1.92442598814e-09,3.09894571349e-08,-7.21168684544e-05,0.0,0.0,0.0,0.0,0.0,0.0,0.0,0.0,0.0,-0.000244790041385,-0.000179498931566,9.81000673781,0.0,0.0,0.0,0.0,0.0,0.0,0.0,0.0,0.0
118040250000,11170,118040250000,RH_EXTIMU,2.29519068294e-06,1.53174070777e-05,-0.703293603497,0.710899505585,0.0,0.0,0.0,0.0,0.0,0.0,0.0,0.0,0.0,1.22771396327e-08,4.92773309288e-08,-7.21161440503e-05,0.0,0.0,0.0,0.0,0.0,0.0,0.0,0.0,0.0,-0.000244459632514,-0.000179624486301,9.81000397547,0.0,0.0,0.0,0.0,0.0,0.0,0.0,0.0,0.0
118040250000,11171,118042750000,RH_EXTIMU,2.29515879296e-06,1.53174529688e-05,-0.70329366758,0.710899442187,0.0,0.0,0.0,0.0,0.0,0.0,0.0,0.0,0.0,-4.30547139138e-08,8.8159657784e-09,-7.21154273389e-05,0.0,0.0,0.0,0.0,0.0,0.0,0.0,0.0,0.0,-0.000245714026909,-0.000178361505674,9.80999680709,0.0,0.0,0.0,0.0,0.0,0.0,0.0,0.0,0.0
118040250000,11172,118045250000,RH_EXTIMU,2.29523033615e-06,1.53173704695e-05,-0.703293731663,0.710899378789,0.0,0.0,0.0,0.0,0.0,0.0,0.0,0.0,0.0,8.80066536826e-08,-6.00704295366e-09,-7.21146712631e-05,0.0,0.0,0.0,0.0,0.0,0.0,0.0,0.0,0.0,-0.000245005149329,-0.000181476813612,9.81001147265,0.0,0.0,0.0,0.0,0.0,0.0,0.0,0.0,0.0
118040250000,11173,118047750000,RH_EXTIMU,2.29509301758e-06,1.53174281956e-05,-0.703293795745,0.710899315393,0.0,0.0,0.0,0.0,0.0,0.0,0.0,0.0,0.0,-1.09672826373e-07,-4.37710589092e-08,-7.21139059111e-05,0.0,0.0,0.0,0.0,0.0,0.0,0.0,0.0,0.0,-0.000246205483512,-0.000176997696647,9.80999408067,0.0,0.0,0.0,0.0,0.0,0.0,0.0,0.0,0.0
118040250000,11174,118050250000,RH_EXTIMU,2.29514866856e-06,1.53173859557e-05,-0.703293859827,0.710899251997,0.0,0.0,0.0,0.0,0.0,0.0,0.0,0.0,0.0,5.63171216641e-08,7.94769853547e-09,-7.21132360473e-05,0.0,0.0,0.0,0.0,0.0,0.0,0.0,0.0,0.0,-0.000245079316151,-0.000180565813704,9.80999981617,0.0,0.0,0.0,0.0,0.0,0.0,0.0,0.0,0.0
118052750000,11175,118052750000,RH_EXTIMU,2.29514522694e-06,1.5317357738e-05,-0.703293923908,0.710899188602,0.0,0.0,0.0,0.0,0.0,0.0,0.0,0.0,0.0,1.48205826273e-08,-1.732514071e-08,-7.211248038e-05,0.0,0.0,0.0,0.0,0.0,0.0,0.0,0.0,0.0,-0.000245656989698,-0.000179480457234,9.8100012566,0.0,0.0,0.0,0.0,0.0,0.0,0.0,0.0,0.0
118055250000,11176,118055250000,RH_EXTIMU,2.29514375644e-06,1.53173421959e-05,-0.703293987988,0.710899125207,0.0,0.0,0.0,0.0,0.0,0.0,0.0,0.0,0.0,8.8098541508e-09,-9.0072603374e-09,-7.21117579523e-05,0.0,0.0,0.0,0.0,0.0,0.0,0.0,0.0,0.0,-0.000245380688407,-0.000179527590557,9.81000060117,0.0,0.0,0.0,0.0,0.0,0.0,0.0,0.0,0.0
118057750000,11177,118057750000,RH_EXTIMU,2.29515942901e-06,1.53173259898e-05,-0.703294052068,0.710899061813,0.0,0.0,0.0,0.0,0.0,0.0,0.0,0.0,0.0,1.89330486572e-08,2.60362656333e-10,-7.21110430045e-05,0.0,0.0,0.0,0.0,0.0,0.0,0.0,0.0,0.0,-0.000245278189195,-0.000179707112884,9.80999998931,0.0,0.0,0.0,0.0,0.0,0.0,0.0,0.0,0.0
118060250000,11178,118060250000,RH_EXTIMU,2.29517928844e-06,1.5317306654e-05,-0.703294116147,0.710898998419,0.0,0.0,0.0,0.0,0.0,0.0,0.0,0.0,0.0,2.30750502845e-08,8.36146795156e-10,-7.21103282311e-05,0.0,0.0,0.0,0.0,0.0,0.0,0.0,0.0,0.0,-0.000245295186887,-0.000179759119289,9.80999978535,0.0,0.0,0.0,0.0,0.0,0.0,0.0,0.0,0.0
118062750000,11179,118062750000,RH_EXTIMU,2.29519878806e-06,1.53172868563e-05,-0.703294180225,0.710898935026,0.0,0.0,0.0,0.0,0.0,0.0,0.0,0.0,0.0,2.3130317767e-08,3.70963379457e-10,-7.21096123454e-05,0.0,0.0,0.0,0.0,0.0,0.0,0.0,0.0,0.0,-0.000245302320899,-0.000179750126366,9.80999980036,0.0,0.0,0.0,0.0,0.0,0.0,0.0,0.0,0.0
118066500000,11180,118065250000,RH_EXTIMU,2.29521739346e-06,1.53172678279e-05,-0.703294244303,0.710898871634,0.0,0.0,0.0,0.0,0.0,0.0,0.0,0.0,0.0,2.21888984091e-08,3.05379324332e-10,-7.21088962368e-05,0.0,0.0,0.0,0.0,0.0,0.0,0.0,0.0,0.0,-0.00024530217568,-0.000179731853147,9.80999985802,0.0,0.0,0.0,0.0,0.0,0.0,0.0,0.0,0.0
118067750000,11181,118067750000,RH_EXTIMU,2.29525604965e-06,1.53172569055e-05,-0.70329430838,0.710898808243,0.0,0.0,0.0,0.0,0.0,0.0,0.0,0.0,0.0,2.90313896388e-08,1.61967292548e-08,-7.2108147517e-05,0.0,0.0,0.0,0.0,0.0,0.0,0.0,0.0,0.0,-0.00024504564988,-0.000179837194819,9.81000579726,0.0,0.0,0.0,0.0,0.0,0.0,0.0,0.0,0.0
118070250000,11182,118070250000,RH_EXTIMU,2.29529013601e-06,1.53172042188e-05,-0.703294372456,0.710898744852,0.0,0.0,0.0,0.0,0.0,0.0,0.0,0.0,0.0,4.99305864697e-08,-1.01266490193e-08,-7.21075113715e-05,0.0,0.0,0.0,0.0,0.0,0.0,0.0,0.0,0.0,-0.000245104237657,-0.000180772333058,9.80999282896,0.0,0.0,0.0,0.0,0.0,0.0,0.0,0.0,0.0
118072750000,11183,118072750000,RH_EXTIMU,2.29535234281e-06,1.53172057889e-05,-0.703294436532,0.710898681461,0.0,0.0,0.0,0.0,0.0,0.0,0.0,0.0,0.0,3.53963294564e-08,3.65518414923e-08,-7.21067372813e-05,0.0,0.0,0.0,0.0,0.0,0.0,0.0,0.0,0.0,-0.000245094660916,-0.000179359947686,9.81000558277,0.0,0.0,0.0,0.0,0.0,0.0,0.0,0.0,0.0
118075250000,11184,118075250000,RH_EXTIMU,2.29536758646e-06,1.53172398496e-05,-0.703294500607,0.710898618072,0.0,0.0,0.0,0.0,0.0,0.0,0.0,0.0,0.0,-9.59281351456e-09,2.86066545124e-08,-7.21060337595e-05,0.0,0.0,0.0,0.0,0.0,0.0,0.0,0.0,0.0,-0.00024475803752,-0.000179323358023,9.80999864387,0.0,0.0,0.0,0.0,0.0,0.0,0.0,0.0,0.0
118077750000,11185,118077750000,RH_EXTIMU,2.2955383739e-06,1.53171956956e-05,-0.703294564681,0.710898554682,0.0,0.0,0.0,0.0,0.0,0.0,0.0,0.0,0.0,1.228741988e-07,7.16389976973e-08,-7.21053896203e-05,0.0,0.0,0.0,0.0,0.0,0.0,0.0,0.0,0.0,-0.000244124300974,-0.000181758381979,9.81000362467,0.0,0.0,0.0,0.0,0.0,0.0,0.0,0.0,0.0
118080250000,11186,118080250000,RH_EXTIMU,2.29532883035e-06,1.53172863788e-05,-0.703294628755,0.710898491294,0.0,0.0,0.0,0.0,0.0,0.0,0.0,0.0,0.0,-1.6929139515e-07,-6.56643653835e-08,-7.21045772239e-05,0.0,0.0,0.0,0.0,0.0,0.0,0.0,0.0,0.0,-0.00024725621286,-0.000175456709363,9.80998911769,0.0,0.0,0.0,0.0,0.0,0.0,0.0,0.0,0.0
118080250000,11187,118082750000,RH_EXTIMU,2.29541267421e-06,1.53171439419e-05,-0.703294692829,0.710898427906,0.0,0.0,0.0,0.0,0.0,0.0,0.0,0.0,0.0,1.28725158506e-07,-3.31738639653e-08,-7.2103951642e-05,0.0,0.0,0.0,0.0,0.0,0.0,0.0,0.0,0.0,-0.000245218083916,-0.000182365548537,9.80999936879,0.0,0.0,0.0,0.0,0.0,0.0,0.0,0.0,0.0
118085250000,11188,118085250000,RH_EXTIMU,2.29543098756e-06,1.53170942121e-05,-0.703294756901,0.710898364519,0.0,0.0,0.0,0.0,0.0,0.0,0.0,0.0,0.0,3.92964313222e-08,-1.73194485263e-08,-7.21032137121e-05,0.0,0.0,0.0,0.0,0.0,0.0,0.0,0.0,0.0,-0.000245520941168,-0.000179799090243,9.80999945376,0.0,0.0,0.0,0.0,0.0,0.0,0.0,0.0,0.0
118087750000,11189,118087750000,RH_EXTIMU,2.2953762389e-06,1.53170929754e-05,-0.703294820973,0.710898301132,0.0,0.0,0.0,0.0,0.0,0.0,0.0,0.0,0.0,-2.95392585995e-08,-3.0847822823e-08,-7.21024930052e-05,0.0,0.0,0.0,0.0,0.0,0.0,0.0,0.0,0.0,-0.000245772414654,-0.000178711439336,9.80999635995,0.0,0.0,0.0,0.0,0.0,0.0,0.0,0.0,0.0
118090250000,11190,118090250000,RH_EXTIMU,2.29543427136e-06,1.53170214686e-05,-0.703294885044,0.710898237746,0.0,0.0,0.0,0.0,0.0,0.0,0.0,0.0,0.0,7.41379407535e-08,-7.35705764149e-09,-7.21017797137e-05,0.0,0.0,0.0,0.0,0.0,0.0,0.0,0.0,0.0,-0.00024532167667,-0.000180896150825,9.81000221238,0.0,0.0,0.0,0.0,0.0,0.0,0.0,0.0,0.0
118092750000,11191,118092750000,RH_EXTIMU,2.29534889124e-06,1.53170207812e-05,-0.703294949115,0.710898174361,0.0,0.0,0.0,0.0,0.0,0.0,0.0,0.0,0.0,-4.72689847979e-08,-4.77698444232e-08,-7.21010457894e-05,0.0,0.0,0.0,0.0,0.0,0.0,0.0,0.0,0.0,-0.000246329518893,-0.000177968702191,9.80999307379,0.0,0.0,0.0,0.0,0.0,0.0,0.0,0.0,0.0
118092750000,11192,118095250000,RH_EXTIMU,2.2954739403e-06,1.53169573867e-05,-0.703295013185,0.710898110976,0.0,0.0,0.0,0.0,0.0,0.0,0.0,0.0,0.0,1.07687194587e-07,3.49625441982e-08,-7.2100410719e-05,0.0,0.0,0.0,0.0,0.0,0.0,0.0,0.0,0.0,-0.000244151319976,-0.000181839236718,9.81000084708,0.0,0.0,0.0,0.0,0.0,0.0,0.0,0.0,0.0
118096500000,11193,118097750000,RH_EXTIMU,2.295516623e-06,1.53169446613e-05,-0.703295077254,0.710898047592,0.0,0.0,0.0,0.0,0.0,0.0,0.0,0.0,0.0,3.23357309636e-08,1.7436637262e-08,-7.20996399136e-05,0.0,0.0,0.0,0.0,0.0,0.0,0.0,0.0,0.0,-0.000245422337511,-0.00017954715839,9.81000387263,0.0,0.0,0.0,0.0,0.0,0.0,0.0,0.0,0.0
118096500000,11194,118100250000,RH_EXTIMU,2.2954732079e-06,1.53169417133e-05,-0.703295141323,0.710897984208,0.0,0.0,0.0,0.0,0.0,0.0,0.0,0.0,0.0,-2.21308543231e-08,-2.54444610262e-08,-7.20988661846e-05,0.0,0.0,0.0,0.0,0.0,0.0,0.0,0.0,0.0,-0.000245748426563,-0.00017893664418,9.8100047751,0.0,0.0,0.0,0.0,0.0,0.0,0.0,0.0,0.0
118102750000,11195,118102750000,RH_EXTIMU,2.29538945314e-06,1.53169694303e-05,-0.703295205391,0.710897920826,0.0,0.0,0.0,0.0,0.0,0.0,0.0,0.0,0.0,-6.23260436561e-08,-3.07012329187e-08,-7.20981245457e-05,0.0,0.0,0.0,0.0,0.0,0.0,0.0,0.0,0.0,-0.000245806903094,-0.000178160564857,9.80999722081,0.0,0.0,0.0,0.0,0.0,0.0,0.0,0.0,0.0
118105250000,11196,118105250000,RH_EXTIMU,2.29544144208e-06,1.53168974305e-05,-0.703295269458,0.710897857443,0.0,0.0,0.0,0.0,0.0,0.0,0.0,0.0,0.0,7.09782405812e-08,-1.10377759489e-08,-7.20974955398e-05,0.0,0.0,0.0,0.0,0.0,0.0,0.0,0.0,0.0,-0.000245374121313,-0.000180913348319,9.80999188097,0.0,0.0,0.0,0.0,0.0,0.0,0.0,0.0,0.0
118107750000,11197,118107750000,RH_EXTIMU,2.29554492211e-06,1.53168140643e-05,-0.703295333525,0.710897794062,0.0,0.0,0.0,0.0,0.0,0.0,0.0,0.0,0.0,1.06657251708e-07,1.14687461558e-08,-7.20968436491e-05,0.0,0.0,0.0,0.0,0.0,0.0,0.0,0.0,0.0,-0.000244873809324,-0.000181103128422,9.80999512481,0.0,0.0,0.0,0.0,0.0,0.0,0.0,0.0,0.0
118110250000,11198,118110250000,RH_EXTIMU,2.29565155442e-06,1.5316839988e-05,-0.703295397592,0.71089773068,0.0,0.0,0.0,0.0,0.0,0.0,0.0,0.0,0.0,4.69595358076e-08,7.53974857666e-08,-7.209612231e-05,0.0,0.0,0.0,0.0,0.0,0.0,0.0,0.0,0.0,-0.000244062207555,-0.000180025294643,9.81000768095,0.0,0.0,0.0,0.0,0.0,0.0,0.0,0.0,0.0
118112750000,11199,118112750000,RH_EXTIMU,2.2956704661e-06,1.53169207425e-05,-0.703295461657,0.7108976673,0.0,0.0,0.0,0.0,0.0,0.0,0.0,0.0,0.0,-3.37785693463e-08,5.7225914668e-08,-7.20952683505e-05,0.0,0.0,0.0,0.0,0.0,0.0,0.0,0.0,0.0,-0.000244541465689,-0.000178815452228,9.81001728413,0.0,0.0,0.0,0.0,0.0,0.0,0.0,0.0,0.0
118115250000,11200,118115250000,RH_EXTIMU,2.29546719499e-06,1.53169523258e-05,-0.703295525722,0.71089760392,0.0,0.0,0.0,0.0,0.0,0.0,0.0,0.0,0.0,-1.32472445552e-07,-9.57467658182e-08,-7.20945459646e-05,0.0,0.0,0.0,0.0,0.0,0.0,0.0,0.0,0.0,-0.000247267015004,-0.000177026788555,9.80998573346,0.0,0.0,0.0,0.0,0.0,0.0,0.0,0.0,0.0
118117750000,11201,118117750000,RH_EXTIMU,2.29563009387e-06,1.53168069563e-05,-0.703295589786,0.710897540541,0.0,0.0,0.0,0.0,0.0,0.0,0.0,0.0,0.0,1.75335116397e-07,9.63755171533e-09,-7.20939011787e-05,0.0,0.0,0.0,0.0,0.0,0.0,0.0,0.0,0.0,-0.000244683309633,-0.000182842922134,9.81000458195,0.0,0.0,0.0,0.0,0.0,0.0,0.0,0.0,0.0
118120250000,11202,118120250000,RH_EXTIMU,2.29554774263e-06,1.53168300759e-05,-0.70329565385,0.710897477163,0.0,0.0,0.0,0.0,0.0,0.0,0.0,0.0,0.0,-5.89411696264e-08,-3.2526336294e-08,-7.20930678808e-05,0.0,0.0,0.0,0.0,0.0,0.0,0.0,0.0,0.0,-0.000246243879713,-0.000177643351221,9.81000289837,0.0,0.0,0.0,0.0,0.0,0.0,0.0,0.0,0.0
118122750000,11203,118122750000,RH_EXTIMU,2.29545358789e-06,1.53168498868e-05,-0.703295717912,0.710897413785,0.0,0.0,0.0,0.0,0.0,0.0,0.0,0.0,0.0,-6.37924711963e-08,-4.10490975785e-08,-7.20924170713e-05,0.0,0.0,0.0,0.0,0.0,0.0,0.0,0.0,0.0,-0.000245775213651,-0.000178230673598,9.80998710083,0.0,0.0,0.0,0.0,0.0,0.0,0.0,0.0,0.0
118125250000,11204,118125250000,RH_EXTIMU,2.29578371256e-06,1.53166984899e-05,-0.703295781975,0.710897350408,0.0,0.0,0.0,0.0,0.0,0.0,0.0,0.0,0.0,2.73830626066e-07,1.00297022009e-07,-7.20918273719e-05,0.0,0.0,0.0,0.0,0.0,0.0,0.0,0.0,0.0,-0.000243041520616,-0.000185137313605,9.81000914788,0.0,0.0,0.0,0.0,0.0,0.0,0.0,0.0,0.0
118127750000,11205,118127750000,RH_EXTIMU,2.29560273549e-06,1.53167995745e-05,-0.703295846036,0.710897287031,0.0,0.0,0.0,0.0,0.0,0.0,0.0,0.0,0.0,-1.58897390766e-07,-4.36768155547e-08,-7.20909214473e-05,0.0,0.0,0.0,0.0,0.0,0.0,0.0,0.0,0.0,-0.000247079751899,-0.000175108887501,9.80999782559,0.0,0.0,0.0,0.0,0.0,0.0,0.0,0.0,0.0
118130250000,11206,118130250000,RH_EXTIMU,2.2956382615e-06,1.53167348366e-05,-0.703295910097,0.710897223655,0.0,0.0,0.0,0.0,0.0,0.0,0.0,0.0,0.0,5.75295239329e-08,-1.61704139009e-08,-7.20903602709e-05,0.0,0.0,0.0,0.0,0.0,0.0,0.0,0.0,0.0,-0.000245022524097,-0.000181185683112,9.80999050196,0.0,0.0,0.0,0.0,0.0,0.0,0.0,0.0,0.0
118130250000,11207,118132750000,RH_EXTIMU,2.29576425607e-06,1.5316679455e-05,-0.703295974158,0.71089716028,0.0,0.0,0.0,0.0,0.0,0.0,0.0,0.0,0.0,1.03716398572e-07,4.005160669e-08,-7.20895827219e-05,0.0,0.0,0.0,0.0,0.0,0.0,0.0,0.0,0.0,-0.00024468982538,-0.000180889868269,9.81001176601,0.0,0.0,0.0,0.0,0.0,0.0,0.0,0.0,0.0
118135250000,11208,118135250000,RH_EXTIMU,2.29569509041e-06,1.53167044353e-05,-0.703296038217,0.710897096905,0.0,0.0,0.0,0.0,0.0,0.0,0.0,0.0,0.0,-5.24892302827e-08,-2.40495061725e-08,-7.20888997992e-05,0.0,0.0,0.0,0.0,0.0,0.0,0.0,0.0,0.0,-0.000245732026344,-0.000178490268038,9.80998935256,0.0,0.0,0.0,0.0,0.0,0.0,0.0,0.0,0.0
118137750000,11209,118137750000,RH_EXTIMU,2.29589011429e-06,1.53166002857e-05,-0.703296102277,0.710897033531,0.0,0.0,0.0,0.0,0.0,0.0,0.0,0.0,0.0,1.70413310581e-07,5.1154751572e-08,-7.20882086302e-05,0.0,0.0,0.0,0.0,0.0,0.0,0.0,0.0,0.0,-0.000244076591358,-0.000182753552568,9.81001071824,0.0,0.0,0.0,0.0,0.0,0.0,0.0,0.0,0.0
118140250000,11210,118140250000,RH_EXTIMU,2.29579942433e-06,1.53167174515e-05,-0.703296166335,0.710896970157,0.0,0.0,0.0,0.0,0.0,0.0,0.0,0.0,0.0,-1.16597487329e-07,1.62676417032e-08,-7.20873151097e-05,0.0,0.0,0.0,0.0,0.0,0.0,0.0,0.0,0.0,-0.000245614338167,-0.000176475157353,9.8100126023,0.0,0.0,0.0,0.0,0.0,0.0,0.0,0.0,0.0
118142750000,11211,118142750000,RH_EXTIMU,2.29571836944e-06,1.53167990202e-05,-0.703296230393,0.710896906785,0.0,0.0,0.0,0.0,0.0,0.0,0.0,0.0,0.0,-9.10896026573e-08,1.44397435842e-09,-7.20865177213e-05,0.0,0.0,0.0,0.0,0.0,0.0,0.0,0.0,0.0,-0.000245208168795,-0.000178228435544,9.81001139819,0.0,0.0,0.0,0.0,0.0,0.0,0.0,0.0,0.0
118146500000,11212,118145250000,RH_EXTIMU,2.29567663966e-06,1.53168200257e-05,-0.703296294449,0.710896843412,0.0,0.0,0.0,0.0,0.0,0.0,0.0,0.0,0.0,-3.46496257236e-08,-1.08736433083e-08,-7.20857793907e-05,0.0,0.0,0.0,0.0,0.0,0.0,0.0,0.0,0.0,-0.000245512293085,-0.000178915159277,9.8099986001,0.0,0.0,0.0,0.0,0.0,0.0,0.0,0.0,0.0
118147750000,11213,118147750000,RH_EXTIMU,2.29583128639e-06,1.53167170281e-05,-0.703296358506,0.710896780041,0.0,0.0,0.0,0.0,0.0,0.0,0.0,0.0,0.0,1.46801864932e-07,2.90923217905e-08,-7.20851839459e-05,0.0,0.0,0.0,0.0,0.0,0.0,0.0,0.0,0.0,-0.000244693362198,-0.000182285597004,9.8099963476,0.0,0.0,0.0,0.0,0.0,0.0,0.0,0.0,0.0
118150250000,11214,118150250000,RH_EXTIMU,2.29572244565e-06,1.53167531459e-05,-0.703296422562,0.71089671667,0.0,0.0,0.0,0.0,0.0,0.0,0.0,0.0,0.0,-8.13195112951e-08,-4.00381977953e-08,-7.20844355202e-05,0.0,0.0,0.0,0.0,0.0,0.0,0.0,0.0,0.0,-0.000246401124769,-0.000177023092602,9.80998997506,0.0,0.0,0.0,0.0,0.0,0.0,0.0,0.0,0.0
118152750000,11215,118152750000,RH_EXTIMU,2.29577278202e-06,1.53166454946e-05,-0.703296486617,0.7108966533,0.0,0.0,0.0,0.0,0.0,0.0,0.0,0.0,0.0,9.00970197005e-08,-3.22431510008e-08,-7.20837706736e-05,0.0,0.0,0.0,0.0,0.0,0.0,0.0,0.0,0.0,-0.000245544995389,-0.000181461301604,9.80999748064,0.0,0.0,0.0,0.0,0.0,0.0,0.0,0.0,0.0
118152750000,11216,118155250000,RH_EXTIMU,2.29578066453e-06,1.53165954393e-05,-0.703296550671,0.71089658993,0.0,0.0,0.0,0.0,0.0,0.0,0.0,0.0,0.0,3.35471638624e-08,-2.33734784591e-08,-7.20830823868e-05,0.0,0.0,0.0,0.0,0.0,0.0,0.0,0.0,0.0,-0.000245568726252,-0.000179661114086,9.80999222166,0.0,0.0,0.0,0.0,0.0,0.0,0.0,0.0,0.0
118157750000,11217,118157750000,RH_EXTIMU,2.29593741223e-06,1.53165133658e-05,-0.703296614725,0.710896526561,0.0,0.0,0.0,0.0,0.0,0.0,0.0,0.0,0.0,1.36223998231e-07,4.21743014039e-08,-7.20824571434e-05,0.0,0.0,0.0,0.0,0.0,0.0,0.0,0.0,0.0,-0.000244397808301,-0.000181986692327,9.80999859276,0.0,0.0,0.0,0.0,0.0,0.0,0.0,0.0,0.0
118160250000,11218,118160250000,RH_EXTIMU,2.29597391489e-06,1.53165040218e-05,-0.703296678779,0.710896463192,0.0,0.0,0.0,0.0,0.0,0.0,0.0,0.0,0.0,2.6918246874e-08,1.58824597921e-08,-7.20816790886e-05,0.0,0.0,0.0,0.0,0.0,0.0,0.0,0.0,0.0,-0.000245246632602,-0.000179455071648,9.81000469251,0.0,0.0,0.0,0.0,0.0,0.0,0.0,0.0,0.0
118162750000,11219,118162750000,RH_EXTIMU,2.29588754308e-06,1.53165387407e-05,-0.703296742831,0.710896399824,0.0,0.0,0.0,0.0,0.0,0.0,0.0,0.0,0.0,-6.77540676761e-08,-2.81919346859e-08,-7.20809178924e-05,0.0,0.0,0.0,0.0,0.0,0.0,0.0,0.0,0.0,-0.000246040111909,-0.000177935451458,9.80999928258,0.0,0.0,0.0,0.0,0.0,0.0,0.0,0.0,0.0
118165250000,11220,118165250000,RH_EXTIMU,2.29591306465e-06,1.53164975755e-05,-0.703296806883,0.710896336457,0.0,0.0,0.0,0.0,0.0,0.0,0.0,0.0,0.0,3.85768799141e-08,-8.39316957653e-09,-7.20802116901e-05,0.0,0.0,0.0,0.0,0.0,0.0,0.0,0.0,0.0,-0.000245045231325,-0.000180385875488,9.81000284063,0.0,0.0,0.0,0.0,0.0,0.0,0.0,0.0,0.0
118167750000,11221,118167750000,RH_EXTIMU,2.29594419494e-06,1.53165268436e-05,-0.703296870934,0.710896273091,0.0,0.0,0.0,0.0,0.0,0.0,0.0,0.0,0.0,2.13824200444e-09,3.48191159607e-08,-7.20794743852e-05,0.0,0.0,0.0,0.0,0.0,0.0,0.0,0.0,0.0,-0.000244771822934,-0.000179231180711,9.81000310777,0.0,0.0,0.0,0.0,0.0,0.0,0.0,0.0,0.0
118170250000,11222,118170250000,RH_EXTIMU,2.29593229682e-06,1.53165274372e-05,-0.703296934985,0.710896209725,0.0,0.0,0.0,0.0,0.0,0.0,0.0,0.0,0.0,-6.19946801878e-09,-5.69791267423e-09,-7.20787586472e-05,0.0,0.0,0.0,0.0,0.0,0.0,0.0,0.0,0.0,-0.000245711174995,-0.000179228291908,9.8099972411,0.0,0.0,0.0,0.0,0.0,0.0,0.0,0.0,0.0
118172750000,11223,118172750000,RH_EXTIMU,2.29603215107e-06,1.53164637577e-05,-0.703296999035,0.710896146359,0.0,0.0,0.0,0.0,0.0,0.0,0.0,0.0,0.0,9.3518528514e-08,2.0624883608e-08,-7.20779727202e-05,0.0,0.0,0.0,0.0,0.0,0.0,0.0,0.0,0.0,-0.000244843113992,-0.000181073578323,9.81001500486,0.0,0.0,0.0,0.0,0.0,0.0,0.0,0.0,0.0
118175250000,11224,118175250000,RH_EXTIMU,2.29586261303e-06,1.53165799528e-05,-0.703297063084,0.710896082995,0.0,0.0,0.0,0.0,0.0,0.0,0.0,0.0,0.0,-1.60893732956e-07,-2.86475404974e-08,-7.20772376939e-05,0.0,0.0,0.0,0.0,0.0,0.0,0.0,0.0,0.0,-0.000245905086496,-0.00017607085898,9.80998977579,0.0,0.0,0.0,0.0,0.0,0.0,0.0,0.0,0.0
118177750000,11225,118177750000,RH_EXTIMU,2.29602386253e-06,1.5316507759e-05,-0.703297127133,0.710896019631,0.0,0.0,0.0,0.0,0.0,0.0,0.0,0.0,0.0,1.33225448783e-07,5.03259851455e-08,-7.20767035311e-05,0.0,0.0,0.0,0.0,0.0,0.0,0.0,0.0,0.0,-0.000244157494815,-0.000182429928317,9.80999186052,0.0,0.0,0.0,0.0,0.0,0.0,0.0,0.0,0.0
118180250000,11226,118180250000,RH_EXTIMU,2.29607348132e-06,1.53164047812e-05,-0.703297191181,0.710895956267,0.0,0.0,0.0,0.0,0.0,0.0,0.0,0.0,0.0,8.70594496101e-08,-2.99890747672e-08,-7.20758769797e-05,0.0,0.0,0.0,0.0,0.0,0.0,0.0,0.0,0.0,-0.00024619012487,-0.000180453208165,9.81000678586,0.0,0.0,0.0,0.0,0.0,0.0,0.0,0.0,0.0
118182750000,11227,118182750000,RH_EXTIMU,2.29597293064e-06,1.53164228941e-05,-0.703297255229,0.710895892904,0.0,0.0,0.0,0.0,0.0,0.0,0.0,0.0,0.0,-6.64747082117e-08,-4.56137385069e-08,-7.20751842521e-05,0.0,0.0,0.0,0.0,0.0,0.0,0.0,0.0,0.0,-0.00024578531632,-0.000178096793879,9.80999257552,0.0,0.0,0.0,0.0,0.0,0.0,0.0,0.0,0.0
118185250000,11228,118185250000,RH_EXTIMU,2.29606664129e-06,1.53164022819e-05,-0.703297319275,0.710895829542,0.0,0.0,0.0,0.0,0.0,0.0,0.0,0.0,0.0,6.57931757454e-08,4.16613992476e-08,-7.20744756614e-05,0.0,0.0,0.0,0.0,0.0,0.0,0.0,0.0,0.0,-0.000244546296473,-0.000180525933757,9.81000499318,0.0,0.0,0.0,0.0,0.0,0.0,0.0,0.0,0.0
